[
  {
    "show": true,
    "region": "AUS",
    "name": "Pixel Plug & Play",
    "abbreviation": "",
    "date": 106,
    "duration": 1,
    "state": "VIC",
    "location": "Pixel Bar & Cafe",
    "fee": {
      "cost": 0,
      "notes": ""
    },
    "signupLink": "",
    "major": false
  },
  {
    "show": true,
    "region": "AUS",
    "name": "CCH",
    "abbreviation": "",
    "date": 110,
    "duration": 1,
    "state": "VIC",
    "location": "Collingwood Library",
    "fee": {
      "cost": 5,
      "notes": "Free if you BYOC"
    },
    "signupLink": "cchfgc.org",
    "major": false
  },
  {
    "show": true,
    "region": "AUS",
    "name": "Pixel Plug & Play",
    "abbreviation": "",
    "date": 120,
    "duration": 1,
    "state": "VIC",
    "location": "Pixel Bar & Cafe",
    "fee": {
      "cost": 0,
      "notes": ""
    },
    "signupLink": "",
    "major": false
  },
  {
    "show": true,
    "region": "AUS",
    "name": "Big CCH",
    "abbreviation": "",
    "date": 124,
    "duration": 1,
    "state": "VIC",
    "location": "Collingwood Djerring Centre",
    "fee": {
      "cost": 5,
      "notes": "Free if you BYOC"
    },
    "signupLink": "cchfgc.org",
    "major": false
  },
  {
    "show": true,
    "region": "AUS",
    "name": "Pixel Plug & Play",
    "abbreviation": "",
    "date": 203,
    "duration": 1,
    "state": "VIC",
    "location": "Pixel Bar & Cafe",
    "fee": {
      "cost": 0,
      "notes": ""
    },
    "signupLink": "",
    "major": false
  },
  {
    "show": true,
    "region": "AUS",
    "name": "York Street Battles 114",
    "abbreviation": "YSB",
    "date": 207,
    "duration": 1,
    "state": "NSW",
    "location": "Bankstown Sportsclub",
    "fee": {
      "cost": 20,
      "notes": "Game Entry Fees Separate"
    },
    "signupLink": "start.gg/ysb114",
    "major": false
  },
  {
    "show": true,
    "region": "AUS",
    "name": "CCH",
    "abbreviation": "",
    "date": 214,
    "duration": 1,
    "state": "VIC",
    "location": "Collingwood Library",
    "fee": {
      "cost": 5,
      "notes": "Free if you BYOC"
    },
    "signupLink": "cchfgc.org",
    "major": false
  },
  {
    "show": true,
    "region": "AUS",
    "name": "Pixel Plug & Play",
    "abbreviation": "",
    "date": 217,
    "duration": 1,
    "state": "VIC",
    "location": "Pixel Bar & Cafe",
    "fee": {
      "cost": 0,
      "notes": ""
    },
    "signupLink": "",
    "major": false
  },
  {
    "show": true,
    "region": "AUS",
    "name": "MegaLAN 2026: Armageddon",
    "abbreviation": "",
    "date": 221,
    "duration": 2,
    "state": "NSW",
    "location": "Tyree Energy Technologies Building",
    "fee": {
      "cost": 10,
      "notes": "Single Day Price, Game Entry Fees Separate"
    },
    "signupLink": "start.gg/tournament/megalan-2026-armageddon/details",
    "major": false
  },
  {
    "show": true,
    "region": "NZ",
    "name": "Auckland Ranbats 2026 Round 1",
    "abbreviation": "",
    "date": 221,
    "duration": 1,
    "state": "AKL",
    "location": "Small Rave",
    "fee": {
      "cost": 15,
      "notes": ""
    },
    "signupLink": "start.gg/tournament/auckland-ranbats-2026-round-1/details",
    "major": false
  },
  {
    "show": true,
    "region": "AUS",
    "name": "RMIT Games Day 27",
    "abbreviation": "",
    "date": 222,
    "duration": 1,
    "state": "VIC",
    "location": "RMIT City Campus, Building 28",
    "fee": {
      "cost": 15,
      "notes": "*Free for RMIT Students"
    },
    "signupLink": "start.gg/rmit",
    "major": false
  },
  {
    "show": true,
    "region": "AUS",
    "name": "The Iron Crown 30",
    "abbreviation": "",
    "date": 222,
    "duration": 1,
    "state": "WA",
    "location": "Escape Portal Esports Lounge",
    "fee": {
      "cost": 10,
      "notes": ""
    },
    "signupLink": "start.gg/tournament/the-iron-crown-30/details",
    "major": false
  },
  {
    "show": true,
    "region": "AUS",
    "name": "Big CCH",
    "abbreviation": "",
    "date": 228,
    "duration": 1,
    "state": "VIC",
    "location": "Collingwood Djerring Centre",
    "fee": {
      "cost": 5,
      "notes": "Free if you BYOC"
    },
    "signupLink": "cchfgc.org",
    "major": false
  },
  {
    "show": true,
    "region": "AUS",
    "name": "Pixel Plug & Play",
    "abbreviation": "",
    "date": 303,
    "duration": 1,
    "state": "VIC",
    "location": "Pixel Bar & Cafe",
    "fee": {
      "cost": 0,
      "notes": ""
    },
    "signupLink": "",
    "major": false
  },
  {
    "show": true,
    "region": "AUS",
    "name": "York Street Battles 115",
    "abbreviation": "YSB",
    "date": 307,
    "duration": 1,
    "state": "NSW",
    "location": "Bankstown Sportsclub",
    "fee": {
      "cost": 20,
      "notes": "Game Entry Fees Separate"
    },
    "signupLink": "start.gg/ysb115",
    "major": false
  },
  {
    "show": true,
    "region": "AUS",
    "name": "CCH",
    "abbreviation": "",
    "date": 314,
    "duration": 1,
    "state": "VIC",
    "location": "Collingwood Library",
    "fee": {
      "cost": 5,
      "notes": "Free if you BYOC"
    },
    "signupLink": "cchfgc.org",
    "major": false
  },
  {
    "show": true,
    "region": "AUS",
    "name": "The Game Expo 2026",
    "abbreviation": "TGX",
    "date": 314,
    "duration": 2,
    "state": "VIC",
    "location": "Melbourne Convention and Exhibition Centre",
    "fee": {
      "cost": 47.43,
      "notes": "Single Day Price"
    },
    "signupLink": "start.gg/tournament/the-game-expo-2026-fgc-fighting-games-tournament/details",
    "major": true
  },
  {
    "show": true,
    "region": "AUS",
    "name": "Pixel Plug & Play",
    "abbreviation": "",
    "date": 317,
    "duration": 1,
    "state": "VIC",
    "location": "Pixel Bar & Cafe",
    "fee": {
      "cost": 0,
      "notes": ""
    },
    "signupLink": "",
    "major": false
  },
  {
    "show": true,
    "region": "AUS",
    "name": "The Wild West",
    "abbreviation": "WW",
    "date": 327,
    "duration": 3,
    "state": "WA",
    "location": "Escape Portal Esports Lounge",
    "fee": {
      "cost": 10,
      "notes": "Single Day Price, Game Entry Fees Separate"
    },
    "signupLink": "start.gg/tournament/the-wild-west-2026/details",
    "major": true
  },
  {
    "show": true,
    "region": "AUS",
    "name": "Big CCH",
    "abbreviation": "",
    "date": 328,
    "duration": 1,
    "state": "VIC",
    "location": "Collingwood Djerring Centre",
    "fee": {
      "cost": 5,
      "notes": "Free if you BYOC"
    },
    "signupLink": "cchfgc.org",
    "major": false
  },
  {
    "show": true,
    "region": "AUS",
    "name": "Pixel Plug & Play",
    "abbreviation": "",
    "date": 331,
    "duration": 1,
    "state": "VIC",
    "location": "Pixel Bar & Cafe",
    "fee": {
      "cost": 0,
      "notes": ""
    },
    "signupLink": "",
    "major": true
  },
  {
    "show": true,
    "region": "AUS",
    "name": "CCH",
    "abbreviation": "",
    "date": 411,
    "duration": 1,
    "state": "VIC",
    "location": "Collingwood Library",
    "fee": {
      "cost": 5,
      "notes": "Free if you BYOC"
    },
    "signupLink": "cchfgc.org",
    "major": false
  },
  {
    "show": true,
    "region": "AUS",
    "name": "York Street Battles 116",
    "abbreviation": "YSB",
    "date": 411,
    "duration": 1,
    "state": "NSW",
    "location": "Bankstown Sportsclub",
    "fee": {
      "cost": 20,
      "notes": "Game Entry Fees Separate"
    },
    "signupLink": "start.gg/ysb116",
    "major": false
  },
  {
    "show": true,
    "region": "AUS",
    "name": "Pixel Plug & Play",
    "abbreviation": "",
    "date": 414,
    "duration": 1,
    "state": "VIC",
    "location": "Pixel Bar & Cafe",
    "fee": {
      "cost": 0,
      "notes": ""
    },
    "signupLink": "",
    "major": false
  },
  {
    "show": true,
    "region": "AUS",
    "name": "Big CCH",
    "abbreviation": "",
    "date": 425,
    "duration": 1,
    "state": "VIC",
    "location": "Collingwood Djerring Centre",
    "fee": {
      "cost": 5,
      "notes": "Free if you BYOC"
    },
    "signupLink": "cchfgc.org",
    "major": false
  },
  {
    "show": true,
    "region": "AUS",
    "name": "Pixel Plug & Play",
    "abbreviation": "",
    "date": 428,
    "duration": 1,
    "state": "VIC",
    "location": "Pixel Bar & Cafe",
    "fee": {
      "cost": 0,
      "notes": ""
    },
    "signupLink": "",
    "major": false
  },
  {
    "show": true,
    "region": "AUS",
    "name": "CCH",
    "abbreviation": "",
    "date": 509,
    "duration": 1,
    "state": "VIC",
    "location": "Collingwood Library",
    "fee": {
      "cost": 5,
      "notes": "Free if you BYOC"
    },
    "signupLink": "cchfgc.org",
    "major": false
  },
  {
    "show": true,
    "region": "AUS",
    "name": "York Street Battles 117",
    "abbreviation": "YSB",
    "date": 509,
    "duration": 1,
    "state": "NSW",
    "location": "Bankstown Sportsclub",
    "fee": {
      "cost": 20,
      "notes": "Game Entry Fees Separate"
    },
    "signupLink": "start.gg/ysb117",
    "major": false
  },
  {
    "show": true,
    "region": "AUS",
    "name": "Pixel Plug & Play",
    "abbreviation": "",
    "date": 512,
    "duration": 1,
    "state": "VIC",
    "location": "Pixel Bar & Cafe",
    "fee": {
      "cost": 0,
      "notes": ""
    },
    "signupLink": "",
    "major": true
  },
  {
    "show": true,
    "region": "AUS",
    "name": "Big CCH",
    "abbreviation": "",
    "date": 523,
    "duration": 1,
    "state": "VIC",
    "location": "Collingwood Djerring Centre",
    "fee": {
      "cost": 5,
      "notes": "Free if you BYOC"
    },
    "signupLink": "cchfgc.org",
    "major": false
  },
  {
    "show": true,
    "region": "AUS",
    "name": "Pixel Plug & Play",
    "abbreviation": "",
    "date": 526,
    "duration": 1,
    "state": "VIC",
    "location": "Pixel Bar & Cafe",
    "fee": {
      "cost": 0,
      "notes": ""
    },
    "signupLink": "",
    "major": false
  },
  {
    "show": true,
    "region": "AUS",
    "name": "Pixel Plug & Play",
    "abbreviation": "",
    "date": 609,
    "duration": 1,
    "state": "VIC",
    "location": "Pixel Bar & Cafe",
    "fee": {
      "cost": 0,
      "notes": ""
    },
    "signupLink": "",
    "major": false
  },
  {
    "show": true,
    "region": "AUS",
    "name": "CCH",
    "abbreviation": "",
    "date": 613,
    "duration": 1,
    "state": "VIC",
    "location": "Collingwood Library",
    "fee": {
      "cost": 5,
      "notes": "Free if you BYOC"
    },
    "signupLink": "cchfgc.org",
    "major": false
  },
  {
    "show": true,
    "region": "AUS",
    "name": "York Street Battles 118",
    "abbreviation": "YSB",
    "date": 613,
    "duration": 1,
    "state": "NSW",
    "location": "Bankstown Sportsclub",
    "fee": {
      "cost": 20,
      "notes": "Game Entry Fees Separate"
    },
    "signupLink": "start.gg/ysb118",
    "major": false
  },
  {
    "show": true,
    "region": "AUS",
    "name": "Pixel Plug & Play",
    "abbreviation": "",
    "date": 623,
    "duration": 1,
    "state": "VIC",
    "location": "Pixel Bar & Cafe",
    "fee": {
      "cost": 0,
      "notes": ""
    },
    "signupLink": "",
    "major": false
  },
  {
    "show": true,
    "region": "AUS",
    "name": "Big CCH",
    "abbreviation": "",
    "date": 627,
    "duration": 1,
    "state": "VIC",
    "location": "Collingwood Djerring Centre",
    "fee": {
      "cost": 5,
      "notes": "Free if you BYOC"
    },
    "signupLink": "cchfgc.org",
    "major": false
  },
  {
    "show": true,
    "region": "AUS",
    "name": "Pixel Plug & Play",
    "abbreviation": "",
    "date": 707,
    "duration": 1,
    "state": "VIC",
    "location": "Pixel Bar & Cafe",
    "fee": {
      "cost": 0,
      "notes": ""
    },
    "signupLink": "",
    "major": false
  },
  {
    "show": true,
    "region": "AUS",
    "name": "Battle Arena Melbourne 16",
    "abbreviation": "BAM",
    "date": 710,
    "duration": 3,
    "state": "VIC",
    "location": "Bundha Sports Centre",
    "fee": {
      "cost": 60,
      "notes": "Early Bird Price Until April 4th"
    },
    "signupLink": "start.gg/bam16",
    "major": true
  },
  {
    "show": true,
    "region": "NZ",
    "name": "Second Wind 2026",
    "abbreviation": "",
    "date": 710,
    "duration": 3,
    "state": "WLG",
    "location": "Respawn Esports Centre",
    "fee": {
      "cost": -1,
      "notes": ""
    },
    "signupLink": "",
    "major": true
  },
  {
    "show": true,
    "region": "AUS",
    "name": "CCH",
    "abbreviation": "",
    "date": 711,
    "duration": 1,
    "state": "VIC",
    "location": "Collingwood Library",
    "fee": {
      "cost": 5,
      "notes": "Free if you BYOC"
    },
    "signupLink": "cchfgc.org",
    "major": false
  },
  {
    "show": true,
    "region": "AUS",
    "name": "York Street Battles 119",
    "abbreviation": "YSB",
    "date": 711,
    "duration": 1,
    "state": "NSW",
    "location": "Bankstown Sportsclub",
    "fee": {
      "cost": 20,
      "notes": "Game Entry Fees Separate"
    },
    "signupLink": "start.gg/ysb119",
    "major": false
  },
  {
    "show": true,
    "region": "AUS",
    "name": "Pixel Plug & Play",
    "abbreviation": "",
    "date": 721,
    "duration": 1,
    "state": "VIC",
    "location": "Pixel Bar & Cafe",
    "fee": {
      "cost": 0,
      "notes": ""
    },
    "signupLink": "",
    "major": false
  },
  {
    "show": true,
    "region": "AUS",
    "name": "Big CCH",
    "abbreviation": "",
    "date": 725,
    "duration": 1,
    "state": "VIC",
    "location": "Collingwood Djerring Centre",
    "fee": {
      "cost": 5,
      "notes": "Free if you BYOC"
    },
    "signupLink": "cchfgc.org",
    "major": false
  },
  {
    "show": true,
    "region": "AUS",
    "name": "Pixel Plug & Play",
    "abbreviation": "",
    "date": 804,
    "duration": 1,
    "state": "VIC",
    "location": "Pixel Bar & Cafe",
    "fee": {
      "cost": 0,
      "notes": ""
    },
    "signupLink": "",
    "major": false
  },
  {
    "show": true,
    "region": "AUS",
    "name": "CCH",
    "abbreviation": "",
    "date": 808,
    "duration": 1,
    "state": "VIC",
    "location": "Collingwood Library",
    "fee": {
      "cost": 5,
      "notes": "Free if you BYOC"
    },
    "signupLink": "cchfgc.org",
    "major": false
  },
  {
    "show": true,
    "region": "AUS",
    "name": "York Street Battles 120",
    "abbreviation": "YSB",
    "date": 808,
    "duration": 1,
    "state": "NSW",
    "location": "Bankstown Sportsclub",
    "fee": {
      "cost": 20,
      "notes": "Game Entry Fees Separate"
    },
    "signupLink": "start.gg/ysb120",
    "major": false
  },
  {
    "show": true,
    "region": "AUS",
    "name": "Pixel Plug & Play",
    "abbreviation": "",
    "date": 818,
    "duration": 1,
    "state": "VIC",
    "location": "Pixel Bar & Cafe",
    "fee": {
      "cost": 0,
      "notes": ""
    },
    "signupLink": "",
    "major": false
  },
  {
    "show": true,
    "region": "AUS",
    "name": "Big CCH",
    "abbreviation": "",
    "date": 822,
    "duration": 1,
    "state": "VIC",
    "location": "Collingwood Djerring Centre",
    "fee": {
      "cost": 5,
      "notes": "Free if you BYOC"
    },
    "signupLink": "cchfgc.org",
    "major": false
  },
  {
    "show": true,
    "region": "AUS",
    "name": "Pixel Plug & Play",
    "abbreviation": "",
    "date": 901,
    "duration": 1,
    "state": "VIC",
    "location": "Pixel Bar & Cafe",
    "fee": {
      "cost": 0,
      "notes": ""
    },
    "signupLink": "",
    "major": false
  },
  {
    "show": true,
    "region": "AUS",
    "name": "CCH",
    "abbreviation": "",
    "date": 912,
    "duration": 1,
    "state": "VIC",
    "location": "Collingwood Library",
    "fee": {
      "cost": 5,
      "notes": "Free if you BYOC"
    },
    "signupLink": "cchfgc.org",
    "major": false
  },
  {
    "show": true,
    "region": "AUS",
    "name": "York Street Battles 121",
    "abbreviation": "YSB",
    "date": 912,
    "duration": 1,
    "state": "NSW",
    "location": "Bankstown Sportsclub",
    "fee": {
      "cost": 20,
      "notes": "Game Entry Fees Separate"
    },
    "signupLink": "start.gg/ysb121",
    "major": false
  },
  {
    "show": true,
    "region": "AUS",
    "name": "Pixel Plug & Play",
    "abbreviation": "",
    "date": 915,
    "duration": 1,
    "state": "VIC",
    "location": "Pixel Bar & Cafe",
    "fee": {
      "cost": 0,
      "notes": ""
    },
    "signupLink": "",
    "major": false
  },
  {
    "show": true,
    "region": "AUS",
    "name": "Big CCH",
    "abbreviation": "",
    "date": 926,
    "duration": 1,
    "state": "VIC",
    "location": "Collingwood Djerring Centre",
    "fee": {
      "cost": 5,
      "notes": "Free if you BYOC"
    },
    "signupLink": "cchfgc.org",
    "major": false
  },
  {
    "show": true,
    "region": "AUS",
    "name": "Pixel Plug & Play",
    "abbreviation": "",
    "date": 929,
    "duration": 1,
    "state": "VIC",
    "location": "Pixel Bar & Cafe",
    "fee": {
      "cost": 0,
      "notes": ""
    },
    "signupLink": "",
    "major": false
  },
  {
    "show": true,
    "region": "AUS",
    "name": "CCH",
    "abbreviation": "",
    "date": 1010,
    "duration": 1,
    "state": "VIC",
    "location": "Collingwood Library",
    "fee": {
      "cost": 5,
      "notes": "Free if you BYOC"
    },
    "signupLink": "cchfgc.org",
    "major": false
  },
  {
    "show": true,
    "region": "AUS",
    "name": "York Street Battles 122",
    "abbreviation": "YSB",
    "date": 1010,
    "duration": 1,
    "state": "NSW",
    "location": "Bankstown Sportsclub",
    "fee": {
      "cost": 20,
      "notes": "Game Entry Fees Separate"
    },
    "signupLink": "start.gg/ysb122",
    "major": false
  },
  {
    "show": true,
    "region": "AUS",
    "name": "Pixel Plug & Play",
    "abbreviation": "",
    "date": 1013,
    "duration": 1,
    "state": "VIC",
    "location": "Pixel Bar & Cafe",
    "fee": {
      "cost": 0,
      "notes": ""
    },
    "signupLink": "",
    "major": false
  },
  {
    "show": true,
    "region": "AUS",
    "name": "Big CCH",
    "abbreviation": "",
    "date": 1024,
    "duration": 1,
    "state": "VIC",
    "location": "Collingwood Djerring Centre",
    "fee": {
      "cost": 5,
      "notes": "Free if you BYOC"
    },
    "signupLink": "start.gg/ysb124",
    "major": false
  },
  {
    "show": true,
    "region": "AUS",
    "name": "Pixel Plug & Play",
    "abbreviation": "",
    "date": 1027,
    "duration": 1,
    "state": "VIC",
    "location": "Pixel Bar & Cafe",
    "fee": {
      "cost": 0,
      "notes": ""
    },
    "signupLink": "",
    "major": false
  },
  {
    "show": true,
    "region": "AUS",
    "name": "Pixel Plug & Play",
    "abbreviation": "",
    "date": 1110,
    "duration": 1,
    "state": "VIC",
    "location": "Pixel Bar & Cafe",
    "fee": {
      "cost": 0,
      "notes": ""
    },
    "signupLink": "",
    "major": false
  },
  {
    "show": true,
    "region": "AUS",
    "name": "CCH",
    "abbreviation": "",
    "date": 1114,
    "duration": 1,
    "state": "VIC",
    "location": "Collingwood Library",
    "fee": {
      "cost": 5,
      "notes": "Free if you BYOC"
    },
    "signupLink": "cchfgc.org",
    "major": false
  },
  {
    "show": true,
    "region": "AUS",
    "name": "York Street Battles 123",
    "abbreviation": "YSB",
    "date": 1114,
    "duration": 1,
    "state": "NSW",
    "location": "Bankstown Sportsclub",
    "fee": {
      "cost": 20,
      "notes": "Game Entry Fees Separate"
    },
    "signupLink": "start.gg/ysb123",
    "major": false
  },
  {
    "show": true,
    "region": "AUS",
    "name": "Pixel Plug & Play",
    "abbreviation": "",
    "date": 1124,
    "duration": 1,
    "state": "VIC",
    "location": "Pixel Bar & Cafe",
    "fee": {
      "cost": 0,
      "notes": ""
    },
    "signupLink": "start.gg/ysb124",
    "major": false
  },
  {
    "show": true,
    "region": "AUS",
    "name": "Big CCH",
    "abbreviation": "",
    "date": 1128,
    "duration": 1,
    "state": "VIC",
    "location": "Collingwood Djerring Centre",
    "fee": {
      "cost": 5,
      "notes": "Free if you BYOC"
    },
    "signupLink": "cchfgc.org",
    "major": false
  },
  {
    "show": true,
    "region": "AUS",
    "name": "Pixel Plug & Play",
    "abbreviation": "",
    "date": 1208,
    "duration": 1,
    "state": "VIC",
    "location": "Pixel Bar & Cafe",
    "fee": {
      "cost": 0,
      "notes": ""
    },
    "signupLink": "",
    "major": false
  },
  {
    "show": true,
    "region": "AUS",
    "name": "End of Year CCH",
    "abbreviation": "",
    "date": 1212,
    "duration": 1,
    "state": "VIC",
    "location": "Collingwood Djerring Centre",
    "fee": {
      "cost": 5,
      "notes": "Free if you BYOC"
    },
    "signupLink": "cchfgc.org",
    "major": false
  },
  {
    "show": true,
    "region": "AUS",
    "name": "York Street Battles 124",
    "abbreviation": "YSB",
    "date": 1212,
    "duration": 1,
    "state": "NSW",
    "location": "Bankstown Sportsclub",
    "fee": {
      "cost": 20,
      "notes": "Game Entry Fees Separate"
    },
    "signupLink": "",
    "major": false
  },
  {
    "show": true,
    "region": "AUS",
    "name": "Burning Knuckle 15",
    "abbreviation": "",
    "date": 214,
    "duration": 1,
    "state": "ACT",
    "location": "Marie Reay Teaching Centre, ANU",
    "fee": {
      "cost": 10,
      "notes": "$5 discount for ANUFGC members"
    },
    "signupLink": "start.gg/tournament/burning-knuckle-15/details",
    "major": false
  },
  {
    "show": true,
    "region": "AUS",
    "name": "Dancing Blade 62",
    "abbreviation": "",
    "date": 221,
    "duration": 1,
    "state": "ACT",
    "location": "Marie Reay Teaching Centre, ANU",
    "fee": {
      "cost": 10,
      "notes": "$5 discount for ANUFGC members"
    },
    "signupLink": "start.gg/tournament/dancing-blade-62/details",
    "major": false
  },
  {
    "show": true,
    "region": "AUS",
    "name": "Fighting Spirits",
    "abbreviation": "",
    "date": 219,
    "duration": 1,
    "state": "QLD",
    "location": "Netherworld Bar",
    "fee": {
      "cost": 10,
      "notes": "18+ Venue, Parent or Legal Guardian Required for Minors"
    },
    "signupLink": "start.gg/tournament/fighting-spirits-netherworld-casual-fighting-games-february-2026/details",
    "major": false
  }
]